stop_id,stop_code,stop_name,street_name,street_number,stop_lat,stop_lon,zone_id,stop_url,stop_timezone
par_8_10446,10446,AV.ROSA LUXEMBURGO-AV.MIGUEL HDEZ.,Avda de Rosa Luxemburgo,13,40.5574989318848,-3.63673400878906,B1,http://www.crtm.es,Europe/Madrid
par_8_17457,17457,VEREDA DE PALACIO-CºHUERTA,Calle Vereda de Palacio,6,40.5080604553223,-3.64445734024048,B1,http://www.crtm.es,Europe/Madrid
par_8_08361,08361,MANUEL DE FALLA-INSTITUTO,Calle Manuel de Falla,89,40.5535507202148,-3.64074754714966,B1,http://www.crtm.es,Europe/Madrid
par_8_08357,08357,MANUEL DE FALLA-CENTRO DE MAYORES,Calle Manuel de Falla,5,40.5485305786133,-3.64936828613281,B1,http://www.crtm.es,Europe/Madrid
par_8_12346,12346,PºDE LOS PARQUES Nº17,Paseo de los Parques,20,40.511100769043,-3.64709496498108,B1,http://www.crtm.es,Europe/Madrid
par_8_09431,09431,CAMINO DE LA HUERTA-CºALTO,Calle Camino de la Huerta,1,40.5103454589844,-3.63392686843872,B1,http://www.crtm.es,Europe/Madrid
par_8_18065,18065,PºFUENTE LUCHA-SUERTE,Paseo de Fuente Lucha,20,40.5544586181641,-3.66000843048096,B1,http://www.crtm.es,Europe/Madrid
par_8_06819,06819,AZALEA-CALÉNDULA,Calle de la Azalea,84,40.5238037109375,-3.64722895622253,B1,http://www.crtm.es,Europe/Madrid
par_8_06770,06770,AV.ESPAÑA-CONSTITUCIÓN,Avda de España,14,40.5449676513672,-3.64309859275818,B1,http://www.crtm.es,Europe/Madrid
par_8_15318,15318,AV.ESPAÑA-CENTRO DE SALUD,Avda de España,23,40.5478782653809,-3.63829612731934,B1,http://www.crtm.es,Europe/Madrid
par_8_06686,06686,AV.BURGOS-C.C.SANCHINARRO,Avda de Burgos,133,40.498046875,-3.66299557685852,A,http://www.crtm.es,Europe/Madrid
par_8_08358,08358,MANUEL DE FALLA-INSTITUTO,Calle de Manuel de Falla,50,40.5535697937012,-3.64018082618713,B1,http://www.crtm.es,Europe/Madrid
par_8_08398,08398,AV.COLMENAR VIEJO-PZA.DEL TORO,Avda de Colmenar Viejo,SN,40.6070518493652,-3.71608114242554,B2,http://www.crtm.es,Europe/Madrid
par_8_07375,07375,CTRA.M616-COLEGIO,Ctra del Goloso,4600,40.5527572631836,-3.67541646957397,B1,http://www.crtm.es,Europe/Madrid
par_8_06778,06778,AV.ESPAÑA-CENTRO DE SALUD,Avda de España,36,40.544994354248,-3.63199806213379,B1,http://www.crtm.es,Europe/Madrid
par_8_16210,16210,AV.PIRINEOS-HOSPITAL INFANTA SOFÍA,Avda de los Pirineos,33,40.5574836730957,-3.61273241043091,B1,http://www.crtm.es,Europe/Madrid
par_8_06817,06817,AZALEA-PZA.DEL SOTO,Calle de la Azalea,1,40.5184326171875,-3.65049433708191,B1,http://www.crtm.es,Europe/Madrid
par_8_17408,17408,AV.QUIÑONES-CERRO DEL BAILE,Avda de los Quiñones,4,40.5629539489746,-3.61808609962463,B1,http://www.crtm.es,Europe/Madrid
par_8_18637,18637,NEWTON-FCO.TOMÁS Y VALIENTE,Calle de Newton,13,40.5471725463867,-3.69074869155884,B1,http://www.crtm.es,Europe/Madrid
par_8_06825,06825,PºALCOBENDAS-CºANCHO,Paseo de Alcobendas,9,40.5267524719238,-3.62859153747559,B1,http://www.crtm.es,Europe/Madrid
par_8_11592,11592,AV.CAMINO DE LO CORTAO-AV.FUENTE NUEVA,Avda de Camino de lo Cortao,12,40.5502815246582,-3.61560773849487,B1,http://www.crtm.es,Europe/Madrid
par_8_12421,12421,PºEUROPA-AV.MONTES DE OCA,Avda de Somosierra,14,40.5532073974609,-3.61732339859009,B1,http://www.crtm.es,Europe/Madrid
par_8_09679,09679,CTRA.M607-EST.EL GOLOSO,Ctra M-607 Colmenar Viejo,17200,40.5583801269531,-3.71259737014771,B1,http://www.crtm.es,Europe/Madrid
par_8_15306,15306,AV.MIGUEL CERVANTES-DOLORES IBÁRRURI,Avda Miguel de Cervantes,5,40.5505332946777,-3.65040349960327,B1,http://www.crtm.es,Europe/Madrid
par_8_10550,10550,PºLA CASTELLANA-HOSPITAL LA PAZ,Paseo de la Castellana,296,40.4795417785645,-3.68592572212219,A,http://www.crtm.es,Europe/Madrid
par_8_4593,4593,CANILLEJAS-ÁREA INTERMODAL,Calle de Josefa Valcárcel,152,40.448917388916,-3.60929250717163,A,http://www.crtm.es,Europe/Madrid
par_8_12719,12719,AV.DR.SEVERO OCHOA-RAMÓN Y CAJAL,Avda del Doctor Severo Ochoa,21,40.5427169799805,-3.65144968032837,B1,http://www.crtm.es,Europe/Madrid
par_8_10449,10449,AV.ARAGÓN-CENTRO DE SALUD,Avda de Aragón,15,40.5588340759277,-3.63309669494629,B1,http://www.crtm.es,Europe/Madrid
par_8_10607,10607,MARQUÉS VALDAVIA-AV.ESPAÑA,Calle del Marqués de la Valdavia,90,40.5451889038086,-3.64388012886047,B1,http://www.crtm.es,Europe/Madrid
par_8_17514,17514,CºENCINAR-ESTAFETA,Calle Estafeta,1,40.5147171020508,-3.65124940872192,B1,http://www.crtm.es,Europe/Madrid
par_8_06862,06862,DALIA-KERRIA,Calle Dalia,23,40.5192794799805,-3.64602851867676,B1,http://www.crtm.es,Europe/Madrid
par_8_18993,18993,PºCHOPERA-AV.CAMILO JOSÉ CELA,Paseo de la Chopera,287,40.5450286865234,-3.65803813934326,B1,http://www.crtm.es,Europe/Madrid
par_8_11627,11627,AV.EUROPA-C.C.MORALEJA GREEN,Avda de Europa,16,40.5175285339355,-3.65572690963745,B1,http://www.crtm.es,Europe/Madrid
par_8_06804,06804,PZA.UNIVERSIDAD POPULAR-EST.BAUNATAL,Plaza de la Universidad Popular,2,40.5547866821289,-3.63406252861023,B1,http://www.crtm.es,Europe/Madrid
par_8_16644,16644,CTRA.M110-APARCAMIENTO T4,Ctra de Alcobendas a Barajas,1000,40.4831809997559,-3.58986306190491,A,http://www.crtm.es,Europe/Madrid
par_8_20860,20860,CAMINO ANCHO-COLEGIO,Calle del Camino Ancho,SN,40.5090980529785,-3.61140656471252,B1,http://www.crtm.es,Europe/Madrid
par_8_06647,06647,AV.VIÑUELAS-GTA.ROBLE,Avda de Viñuelas,38,40.5960998535156,-3.7022430896759,B2,http://www.crtm.es,Europe/Madrid
par_8_16915,16915,GRANJA-REYES CATÓLICOS,Calle de la Granja,106,40.5372543334961,-3.65653324127197,B1,http://www.crtm.es,Europe/Madrid
par_8_06790,06790,REAL-SACRAMENTO,Calle del Real,3,40.5446243286133,-3.62851071357727,B1,http://www.crtm.es,Europe/Madrid
par_8_06788,06788,AV.COLMENAR VIEJO-RAMÓN ESTEBAN,Avda de Colmenar Viejo,3,40.5452117919922,-3.62874054908752,B1,http://www.crtm.es,Europe/Madrid
par_8_16569,16569,ALONSO Z.VICENTE-ROSA CHACEL,Calle Alonso Zamora Vicente,9,40.5627212524414,-3.61207151412964,B1,http://www.crtm.es,Europe/Madrid
par_8_20898,20898,AV.ESPAÑA-VIVEROS,Avda de España,6,40.5432891845703,-3.62780141830444,B1,http://www.crtm.es,Europe/Madrid
par_8_12714,12714,AV.VALDELAPARRA-MUSEO DE LA CIENCIA,Avda de Valdelaparra,4,40.5362663269043,-3.64183449745178,B1,http://www.crtm.es,Europe/Madrid
par_8_13125,13125,CTRA.M106-POL.IND.LA GARZA,Ctra de Algete,SN,40.5911254882813,-3.53023386001587,B3,http://www.crtm.es,Europe/Madrid
par_8_06737,06737,CTRA.M106-POL.IND.RÍO DE JANEIRO,Ctra de Algete,4.500,40.5880737304688,-3.54402375221252,B3,http://www.crtm.es,Europe/Madrid
par_8_10488,10488,AV.ARAGÓN-PZA.ABOGADOS DE ATOCHA,Avda de Aragón,2,40.5587463378906,-3.62792229652405,B1,http://www.crtm.es,Europe/Madrid
par_8_06688,06688,CTRA.A1-EL ENCINAR DE LOS REYES,Ctra de Irún,12700,40.513240814209,-3.6555552482605,B1,http://www.crtm.es,Europe/Madrid
par_8_16190,16190,AV.MATAPIÑONERA-PLAZA NORTE,Avda Matapiñonera,24,40.5434112548828,-3.61665487289429,B1,http://www.crtm.es,Europe/Madrid
par_8_06787,06787,AV.COLMENAR VIEJO-RAMÓN ESTEBAN,Avda de Colmenar Viejo,12,40.5453643798828,-3.62857675552368,B1,http://www.crtm.es,Europe/Madrid
par_8_17409,17409,AV.TENERIFE-BEATRIZ GALINDO,Avda de Tenerife,20 A,40.5608978271484,-3.61980366706848,B1,http://www.crtm.es,Europe/Madrid
par_8_12713,12713,AV.VALDELAPARRA-MUSEO DE LA CIENCIA,Avda de Valdelaparra,500,40.5359878540039,-3.6415011882782,B1,http://www.crtm.es,Europe/Madrid
par_8_17459,17459,PºPARQUES-CAMINO DEL ENCINAR,Paseo de los Parques,38,40.5095634460449,-3.6353714466095,B1,http://www.crtm.es,Europe/Madrid
par_8_19102,19102,PºPARQUES-PARQUE,Paseo de los Parques,2,40.5133476257324,-3.65429329872131,B1,http://www.crtm.es,Europe/Madrid
par_8_06812,06812,AZALEA-BEGONIA,Calle de la Azalea,532,40.5277404785156,-3.637526512146,B1,http://www.crtm.es,Europe/Madrid
par_8_11797,11797,AV.BRUSELAS-SALVIA,Avda de Bruselas,5,40.5309562683105,-3.63235020637512,B1,http://www.crtm.es,Europe/Madrid
par_8_12930,12930,AV.BRUSELAS-CENTRO COMERCIAL,Avda de Bruselas,SN,40.5305366516113,-3.64016222953796,B1,http://www.crtm.es,Europe/Madrid
par_8_4921,4921,AV.LOGROÑO-BENIFAYO,Avda de Logroño,225,40.4628639221191,-3.58841156959534,A,http://www.crtm.es,Europe/Madrid
par_8_1322,1322,AV.LOGROÑO-ALGEMESI,Avda de Logroño,323,40.4722595214844,-3.58193445205688,A,http://www.crtm.es,Europe/Madrid
par_8_06768,06768,LIBERTAD-JULIÁN BAENA CASTRO,Calle de la Libertad,26,40.5395812988281,-3.63649344444275,B1,http://www.crtm.es,Europe/Madrid
par_8_18062,18062,PºFUENTE LUCHA-IMAGINACIÓN,Paseo de Fuente Lucha,7,40.5531578063965,-3.65946412086487,B1,http://www.crtm.es,Europe/Madrid
par_8_11590,11590,AV.CAMINO DE LO CORTAO-AV.MATAPIÑONERA,Avda de Camino de lo Cortao,2,40.5492324829102,-3.61948347091675,B1,http://www.crtm.es,Europe/Madrid
par_8_16567,16567,ALONSO Z.VICENTE-AV.TENERIFE,Calle Alonso Zamora Vicente,1,40.559497833252,-3.61533761024475,B1,http://www.crtm.es,Europe/Madrid
par_8_15851,15851,AV.TENERIFE-LANZAROTE,Avda de Tenerife,28,40.5594482421875,-3.61645936965942,B1,http://www.crtm.es,Europe/Madrid
par_8_12723,12723,MARQUÉS VALDAVIA-EST.VALDELASFUENTES,Calle del Marqués de la Valdavia,138,40.5469703674316,-3.65431332588196,B1,http://www.crtm.es,Europe/Madrid
par_8_06739,06739,CTRA.M106-POL.IND.EL NOGAL,Ctra de Algete,20,40.5933227539063,-3.52291202545166,B3,http://www.crtm.es,Europe/Madrid
par_8_09128,09128,IVÁN PAVLOV-RECTORADO,Calle de Iván Pavlov,4,40.5437889099121,-3.69464635848999,B1,http://www.crtm.es,Europe/Madrid
par_8_12716,12716,AV.VALDELAPARRA-PARQUE ANDALUCÍA,Avda de Valdelaparra,25,40.5389213562012,-3.64690208435059,B1,http://www.crtm.es,Europe/Madrid
par_8_16189,16189,AV.MATAPIÑONERA-AV.CAMINO DE LO CORTAO,Avda Matapiñonera,6,40.5483055114746,-3.61967587471008,B1,http://www.crtm.es,Europe/Madrid
par_8_16811,16811,AV.EUROPA-P.EMPRESARIAL LA MORALEJA,Avda de Europa,8,40.5207099914551,-3.65894532203674,B1,http://www.crtm.es,Europe/Madrid
par_8_06823,06823,PºALCOBENDAS-SALVIA,Paseo de Alcobendas,3,40.525089263916,-3.63094902038574,B1,http://www.crtm.es,Europe/Madrid
par_8_11625,11625,AV.EUROPA-PZA.PARÍS,Avda de Europa,11,40.5197448730469,-3.65740132331848,B1,http://www.crtm.es,Europe/Madrid
par_8_12217,12217,AV.MATAPIÑONERA-AV.CERRO DEL ÁGUILA,Avda Matapiñonera,24,40.5457305908203,-3.61737275123596,B1,http://www.crtm.es,Europe/Madrid
par_8_06682,06682,YUCA-CTRA.N1,Calle de Yuca,SN,40.5261039733887,-3.64777064323425,B1,http://www.crtm.es,Europe/Madrid
par_8_16264,16264,PºCHOPERA-NARANJOS,Paseo de la Chopera,18,40.5376853942871,-3.63765621185303,B1,http://www.crtm.es,Europe/Madrid
par_8_06695,06695,CTRA.ANTIGUA DE BURGOS-CARAVANAS,Ctra N-I ( Burgos),21900,40.5761680603027,-3.59238028526306,B2,http://www.crtm.es,Europe/Madrid
par_8_18174,18174,FELICIDAD-HECHIZO,Calle de la Felicidad,SN,40.550609588623,-3.66057300567627,B1,http://www.crtm.es,Europe/Madrid
par_8_18639,18639,NEWTON-NICOLÁS CABRERA,Calle de Newton,13,40.54931640625,-3.69196343421936,B1,http://www.crtm.es,Europe/Madrid
par_8_07377,07377,UNIVERSIDAD DE COMILLAS-EDIFICIO B,Calle de la Universidad de Comillas,0,40.5511741638184,-3.6813530921936,B1,http://www.crtm.es,Europe/Madrid
par_8_16181,16181,AV.MATAPIÑONERA-AV.SEVERO OCHOA,Avda Matapiñonera,24,40.5408363342285,-3.61828446388245,B1,http://www.crtm.es,Europe/Madrid
par_8_12875,12875,CTRA.M607-CEMENTERIO LA PAZ,Ctra M-607 Colmenar Viejo,19300,40.5774765014648,-3.70695161819458,B2,http://www.crtm.es,Europe/Madrid
par_8_07333,07333,AV.LOGROÑO-PZA.PAJARONES,Avda de Logroño,162,40.4752578735352,-3.58230257034302,A,http://www.crtm.es,Europe/Madrid
par_8_16910,16910,CALABOZOS-SAN JOSÉ ARTESANO,Calle de los Calabozos,14,40.529167175293,-3.65307760238647,B1,http://www.crtm.es,Europe/Madrid
par_8_09441,09441,CAMINO VIEJO-INTERGOLF,Calle del Camino Viejo,84,40.5186004638672,-3.60986399650574,B1,http://www.crtm.es,Europe/Madrid
par_8_12924,12924,AV.ESPAÑA-ÁVILA,Avda de España,56 A,40.544734954834,-3.63181829452515,B1,http://www.crtm.es,Europe/Madrid
par_8_10487,10487,AV.TENERIFE-PºJUANA DE CASTILLA,Avda de Tenerife,6,40.5595512390137,-3.623783826828,B1,http://www.crtm.es,Europe/Madrid
par_8_3261,3261,AV.BURGOS-FCO.PI Y MARGALL,Avda de Burgos,10300,40.4943084716797,-3.66743111610413,A,http://www.crtm.es,Europe/Madrid
par_8_11698,11698,RONDA CONSTITUCIÓN-FUENTE DEL NOQUE,Calle Ronda de la Constitución,113,40.5964469909668,-3.49471378326416,B3,http://www.crtm.es,Europe/Madrid
par_8_06841,06841,AV.BARAJAS-URB.FUENTE HITO,Avda de Barajas,4,40.5364570617676,-3.62348675727844,B1,http://www.crtm.es,Europe/Madrid
par_8_15676,15676,DOLORES IBÁRRURI-TERESA DE CALCUTA,Calle Dolores Ibárruri,16,40.5503578186035,-3.65444087982178,B1,http://www.crtm.es,Europe/Madrid
par_8_16919,16919,CºDEL SOTO-PZA.MORALEJA,Calle del Camino del Soto,1,40.5162582397461,-3.65094566345215,B1,http://www.crtm.es,Europe/Madrid
par_8_07365,07365,MARQUÉS VALDAVIA-JACINTO BENAVENTE,Calle del Marqués de la Valdavia,83,40.5460166931152,-3.64615535736084,B1,http://www.crtm.es,Europe/Madrid
par_8_18992,18992,PºCHOPERA-AV.VALDELAPARRA,Paseo de la Chopera,341,40.5453643798828,-3.66098189353943,B1,http://www.crtm.es,Europe/Madrid
par_8_12238,12238,CALÉNDULA-YUCA,Calle de Caléndula,87,40.5262107849121,-3.6464729309082,B1,http://www.crtm.es,Europe/Madrid
par_8_15316,15316,RUPERTO CHAPÍ-TEATRO AUDITORIO,Calle de Ruperto Chapí,19,40.5483589172363,-3.64284753799438,B1,http://www.crtm.es,Europe/Madrid
par_8_06750,06750,CTRA.ANTIGUA DE BURGOS-LA GRANJILLA,Ctra N-I ( Burgos),20400,40.5697021484375,-3.60222339630127,B2,http://www.crtm.es,Europe/Madrid
par_8_06821,06821,AZALEA-DALIA,Calle de la Azalea,604,40.5254287719727,-3.63481283187866,B1,http://www.crtm.es,Europe/Madrid
par_8_06743,06743,PZA.CONSTITUCIÓN-BIBLIOTECA,Plaza de la Constitución,5,40.5963821411133,-3.49732518196106,B3,http://www.crtm.es,Europe/Madrid
par_8_08362,08362,MANUEL DE FALLA-CENTRO DE MAYORES,Calle Manuel de Falla,9,40.5491523742676,-3.64893746376038,B1,http://www.crtm.es,Europe/Madrid
par_8_11535,11535,AV.PARQUE-MAR EGEO,Avda del Parque,36,40.5935897827148,-3.7060694694519,B2,http://www.crtm.es,Europe/Madrid
par_8_15313,15313,MANUEL DE FALLA-EST.MANUEL DE FALLA,Calle Manuel de Falla,59,40.5503997802734,-3.64672899246216,B1,http://www.crtm.es,Europe/Madrid
par_8_12094,12094,AV.BRUSELAS-CENTRO EMPRESARIAL,Avda de Bruselas,33,40.5295066833496,-3.6420533657074,B1,http://www.crtm.es,Europe/Madrid
par_8_15681,15681,FCO.LARGO CABALLERO-AV.PABLO IGLESIAS,Calle Francisco Largo Caballero,52,40.5538368225098,-3.65508890151978,B1,http://www.crtm.es,Europe/Madrid
par_8_13031,13031,SANTA TERESA DE JESÚS-CASA DE NIÑOS,Calle de Santa Teresa de Jesús,SN,40.6002311706543,-3.50717544555664,B3,http://www.crtm.es,Europe/Madrid
par_8_06811,06811,BEGONIA-CEMENTERIO,Calle de Begonia,277,40.5248641967773,-3.6392228603363,B1,http://www.crtm.es,Europe/Madrid
par_8_50000,50000,AV.BURGOS-CENTRO FINANCIERO,Avda de Burgos,135,40.4987258911133,-3.66366314888,A,http://www.crtm.es,Europe/Madrid
par_8_07326,07326,AV.LOGROÑO-PARQUE EL CAPRICHO,Avda de Logroño,40 B,40.4587478637695,-3.59704446792603,A,http://www.crtm.es,Europe/Madrid
par_8_06766,06766,MARQUÉS VALDAVIA-AV.ESPAÑA,Calle del Marqués de la Valdavia,69,40.5445098876953,-3.64283442497253,B1,http://www.crtm.es,Europe/Madrid
par_8_13293,13293,AV.PABLO IGLESIAS-PALESTINA,Avda Pablo Iglesias,10,40.5507926940918,-3.65665364265442,B1,http://www.crtm.es,Europe/Madrid
par_8_12240,12240,NARDO-CENTRO CÍVICO,Calle del Nardo,SN,40.5311508178711,-3.63650798797607,B1,http://www.crtm.es,Europe/Madrid
par_8_11792,11792,AV.VEGA-ANABEL SEGURA,Avda de la Vega,8,40.5358543395996,-3.62800359725952,B1,http://www.crtm.es,Europe/Madrid
par_8_12239,12239,CALÉNDULA-YUCA,Calle de la Caléndula,141,40.526123046875,-3.64627146720886,B1,http://www.crtm.es,Europe/Madrid
par_8_07370,07370,CTRA.BARAJAS-BUTANO,Ctra de Barajas,9000,40.5288963317871,-3.60634446144104,B1,http://www.crtm.es,Europe/Madrid
par_8_06689,06689,CTRA.A1-CUESTA BLANCA,Ctra de Irún,13700,40.5217704772949,-3.65101075172424,B1,http://www.crtm.es,Europe/Madrid
par_8_15303,15303,AV.MIGUEL CERVANTES-DOLORES IBÁRRURI,Avda Miguel de Cervantes,5,40.5505599975586,-3.65014386177063,B1,http://www.crtm.es,Europe/Madrid
par_8_15300,15300,JOSÉ HIERRO-EST.VALDELASFUENTES,Paseo Valdelasfuentes,2,40.5483551025391,-3.65327572822571,B1,http://www.crtm.es,Europe/Madrid
par_8_12236,12236,CALÉNDULA-RESIDENCIAL MINIPARK,Calle de Caléndula,95,40.5279197692871,-3.64403367042542,B1,http://www.crtm.es,Europe/Madrid
par_8_07325,07325,AV.LOGROÑO-JARDINES DE ARANJUEZ,Avda de Logroño,36,40.454517364502,-3.60323405265808,A,http://www.crtm.es,Europe/Madrid
par_8_13061,13061,EMILIA PARDO BAZÁN-MIGUEL UNAMUNO,Calle de Emilia Pardo Bazán,1,40.6012191772461,-3.50556373596191,B3,http://www.crtm.es,Europe/Madrid
par_8_06769,06769,AV.SIERRA-C.C.LA VIÑA,Avda de la Sierra,37,40.5481033325195,-3.63325548171997,B1,http://www.crtm.es,Europe/Madrid
par_8_17470,17470,INTERCAMBIADOR DE PLAZA CASTILLA,Avda de Asturias,2,40.4667778015137,-3.69078540802002,A,http://www.crtm.es,
par_8_16180,16180,AV.INDEPENDENCIA-SEVILLA,Avda de la Independencia,5,40.5506591796875,-3.63549995422363,B1,http://www.crtm.es,Europe/Madrid
par_8_06654,06654,AV.INDUSTRIA-IMPRENTA,Avda de la Industria,25,40.606029510498,-3.69778442382813,B2,http://www.crtm.es,Europe/Madrid
par_8_06815,06815,DALIA-JAZMÍN,Calle Dalia,255,40.5213623046875,-3.64199924468994,B1,http://www.crtm.es,Europe/Madrid
par_8_06747,06747,CTRA-M100-EL CASETÓN,Ctra Algete,21.600,40.5852546691895,-3.56085133552551,B2,http://www.crtm.es,Europe/Madrid
par_8_16948,16948,FRANCISCO GERVÁS-ARROYO DE LA VEGA,Calle de Francisco Gervas,14,40.5331726074219,-3.65201830863953,B1,http://www.crtm.es,Europe/Madrid
par_8_06687,06687,AV.BURGOS-DOMINICOS,Avda de Burgos,11300,40.5014419555664,-3.65994882583618,A,http://www.crtm.es,Europe/Madrid
par_8_17520,17520,PºALCOBENDAS-COLEGIO,Paseo de Alcobendas,9,40.5270042419434,-3.62828707695007,B1,http://www.crtm.es,Europe/Madrid
par_8_18635,18635,MARIE CURIE-FACULTAD INFORMÁTICA,Calle de Marie Curie,4,40.5459098815918,-3.692542552948,B1,http://www.crtm.es,Europe/Madrid
par_8_16908,16908,FRANCISCO GERVÁS-ARROYO DE LA VEGA,Calle de Francisco Gervas,11,40.5331420898438,-3.65220713615417,B1,http://www.crtm.es,Europe/Madrid
par_8_17028,17028,AV.VALDELAPARRA-POLICÍA LOCAL,Avda de Valdelaparra,118,40.5471496582031,-3.66213321685791,B1,http://www.crtm.es,Europe/Madrid
par_8_12720,12720,AV.DR.SEVERO OCHOA-RAMÓN Y CAJAL,Avda del Doctor Severo Ochoa,32,40.5420722961426,-3.65214014053345,B1,http://www.crtm.es,Europe/Madrid
par_8_17460,17460,CºDEL CURA-URB.OTERO DEL ENCINAR,Cmno del Cura,99,40.5083808898926,-3.63589143753052,B1,http://www.crtm.es,Europe/Madrid
par_8_17512,17512,AV.ERMITA-EST.LA MORALEJA,Avda de la Ermita,5,40.5322647094727,-3.63550305366516,B1,http://www.crtm.es,Europe/Madrid
par_8_11231,11231,PºCHOPERA-AV.CAMILO JOSÉ CELA,Paseo de la Chopera,253,40.5449714660645,-3.65688014030457,B1,http://www.crtm.es,Europe/Madrid
par_8_07378,07378,EINSTEIN-RECTORADO,Calle de Einstein,10,40.5436477661133,-3.69537711143494,B1,http://www.crtm.es,Europe/Madrid
par_8_10451,10451,AV.NAVARRONDÁN-PºRÍAS BAJAS,Avda de Navarrondán,28,40.561767578125,-3.62873005867004,B1,http://www.crtm.es,Europe/Madrid
par_8_06814,06814,DALIA-LAUREL,Calle Dalia,62,40.5236625671387,-3.63860940933228,B1,http://www.crtm.es,Europe/Madrid
par_8_09437,09437,CAMINO HUERTA-CºANCHO,Calle Camino de la Huerta,82,40.5136528015137,-3.62001776695251,B1,http://www.crtm.es,Europe/Madrid
par_8_18076,18076,AV.PABLO IGLESIAS-JOSÉ HIERRO,Avda Pablo Iglesias,2,40.547794342041,-3.65682506561279,B1,http://www.crtm.es,Europe/Madrid
par_8_06749,06749,CTRA.ANTIGUA DE BURGOS-GRANJA ESCUELA,Ctra N-I ( Burgos),21900,40.5763740539551,-3.59272480010986,B2,http://www.crtm.es,Europe/Madrid
par_8_07384,07384,AV.LOGROÑO-ALAMEDA DE OSUNA,Avda de Logroño,179,40.4605140686035,-3.59352159500122,A,http://www.crtm.es,Europe/Madrid
par_8_06571,06571,CTRA.M607-EL GOLOSO,Ctra M-607 Colmenar Viejo,16800,40.5549240112305,-3.7090175151825,B1,http://www.crtm.es,Europe/Madrid
par_8_11336,11336,NARDO-GARDENIA,Calle del Nardo,12,40.5293922424316,-3.63698720932007,B1,http://www.crtm.es,Europe/Madrid
par_8_11794,11794,AV.VEGA-FRANCISCA DELGADO,Avda de la Vega,15,40.534782409668,-3.6314651966095,B1,http://www.crtm.es,Europe/Madrid
par_8_16925,16925,PºLOS PARQUES-VEREDA DEL PALACIO,Paseo de los Parques,30,40.5093955993652,-3.64277052879334,B1,http://www.crtm.es,Europe/Madrid
par_8_11795,11795,AV.VEGA-FRANCISCA DELGADO,Avda de la Vega,13,40.5347862243652,-3.63057947158813,B1,http://www.crtm.es,Europe/Madrid
par_8_06771,06771,MARQUÉS VALDAVIA-MANUEL DE FALLA,Calle del Marqués de la Valdavia,110,40.5463714599609,-3.64989066123962,B1,http://www.crtm.es,Europe/Madrid
par_8_06744,06744,MAYOR-PARQUE LOS OLIVOS,Calle Mayor,50,40.5966529846191,-3.50324845314026,B3,http://www.crtm.es,Europe/Madrid
par_8_06669,06669,CTRA.M607-CIUDAD ESCOLAR,Ctra M-607 Colmenar Viejo,13400,40.5275001525879,-3.69160914421082,B1,http://www.crtm.es,Europe/Madrid
par_8_06681,06681,FCO.CHICO MENDES-C.C.PLANET ALCOBENDAS,Calle de Francisco Chico Mendes,2,40.5256996154785,-3.65263080596924,B1,http://www.crtm.es,Europe/Madrid
par_8_12717,12717,AV.VALDELAPARRA-DR.SEVERO OCHOA,Avda de Valdelaparra,1700,40.5399436950684,-3.65436315536499,B1,http://www.crtm.es,Europe/Madrid
par_8_16914,16914,SAN RAFAEL-GRANJA,Calle de San Rafael,8,40.5250930786133,-3.65950775146484,B1,http://www.crtm.es,Europe/Madrid
par_8_16573,16573,AV.TENERIFE-MARÍA PACHECO,Avda de Tenerife,20 A,40.5610237121582,-3.6200647354126,B1,http://www.crtm.es,Europe/Madrid
par_8_10610,10610,AV.ESPAÑA-EST.ALCOBENDAS S.SEB.REYES,Avda de España,50,40.5461807250977,-3.63418197631836,B1,http://www.crtm.es,Europe/Madrid
par_8_06641,06641,AV.ARTESANOS-RESIDENCIA ANCIANOS,Avda de los Artesanos,SN,40.6165771484375,-3.7139720916748,B2,http://www.crtm.es,Europe/Madrid
par_8_12033,12033,AV.VEGA-AV.ERMITA,Avda de la Vega,24,40.5340423583984,-3.63501214981079,B1,http://www.crtm.es,Europe/Madrid
par_8_08395,08395,AV.COLMENAR VIEJO-C.C.EL ZOCO,Avda de Colmenar Viejo,44,40.6107749938965,-3.71297645568848,B2,http://www.crtm.es,Europe/Madrid
par_8_12845,12845,PºCHOPERA-PABLO SERRANO,Paseo de la Chopera,1,40.5377731323242,-3.63817667961121,B1,http://www.crtm.es,Europe/Madrid
par_8_06692,06692,AV.OLÍMPICA-PABELLÓN DEPORTIVO,Avda Olímpica,3 A,40.5364875793457,-3.63275647163391,B1,http://www.crtm.es,Europe/Madrid
par_8_1314,1314,AV.LOGROÑO-MARQUÉS DE BERNA,Avda de Logroño,269,40.4651718139648,-3.58499908447266,A,http://www.crtm.es,Europe/Madrid
par_8_09433,09433,CAMINO HUERTA-VEREDA LOS CHOPOS,Calle Camino de la Huerta,13,40.5108642578125,-3.62975335121155,B1,http://www.crtm.es,Europe/Madrid
par_8_16933,16933,VEREDA NORTE-CAMINO NUEVO,Calle Camino Nuevo,18,40.5189056396484,-3.64149188995361,B1,http://www.crtm.es,Europe/Madrid
par_8_3253,3253,Pº CASTELLANA-HOSPITAL LA PAZ,Acces Nudo Norte,29700,40.4806365966797,-3.68515825271606,A,http://www.crtm.es,Europe/Madrid
par_8_06818,06818,AZALEA-ZARZAMORA,Calle de la Azalea,227,40.5223731994629,-3.64837217330933,B1,http://www.crtm.es,Europe/Madrid
par_8_09428,09428,CAMINO SUR-PºMARQUESA VIUDA ALDAMA,Calle del Camino Sur,66,40.5161361694336,-3.6241250038147,B1,http://www.crtm.es,Europe/Madrid
par_8_06809,06809,JAZMÍN-IRIS,Calle Jazmín,8,40.5241394042969,-3.64513063430786,B1,http://www.crtm.es,Europe/Madrid
par_8_10448,10448,AV.ARAGÓN-CENTRO DE SALUD,Avda de Aragón,SN,40.5590133666992,-3.63312196731567,B1,http://www.crtm.es,Europe/Madrid
par_8_09439,09439,CAMINO VIEJO-CºANCHO,Calle del Camino Viejo,64,40.5128517150879,-3.61499381065369,B1,http://www.crtm.es,Europe/Madrid
par_8_17474,17474,PºEUROPA-HOSPITAL INFANTA SOFÍA,Paseo Europa,11,40.5593185424805,-3.61180424690247,B1,http://www.crtm.es,Europe/Madrid
par_8_07363,07363,AV.LOGROÑO-EST.BARAJAS,Avda de Logroño,345,40.4750556945801,-3.58252501487732,A,http://www.crtm.es,Europe/Madrid
par_8_06829,06829,PºALCOBENDAS-VEREDA DE LAS PEÑAS,Paseo de Alcobendas,12,40.5274696350098,-3.61757111549377,B1,http://www.crtm.es,Europe/Madrid
par_8_16909,16909,CALABOZOS-FRANCISCO GERVÁS,Calle de los Calabozos,2,40.5309028625488,-3.65185475349426,B1,http://www.crtm.es,Europe/Madrid
par_8_12721,12721,AV.DR.SEVERO OCHOA-PABELLÓN DEPORTIVO,Avda del Doctor Severo Ochoa,3,40.5455322265625,-3.65052032470703,B1,http://www.crtm.es,Europe/Madrid
par_8_12725,12725,AV.CAMILO J.CELA-MARQUÉS DE LA VALDAVIA,Avda de Camilo José Cela,3,40.5466651916504,-3.65715646743774,B1,http://www.crtm.es,Europe/Madrid
par_8_06758,06758,MARQUÉS VALDAVIA-NEMESIO CASTRO,Calle del Marqués de la Valdavia,44,40.5426254272461,-3.63852977752686,B1,http://www.crtm.es,Europe/Madrid
par_8_10614,10614,AV.ESPAÑA-EST.ALCOBENDAS-S.S.REYES,Avda de España,52,40.546688079834,-3.63500165939331,B1,http://www.crtm.es,Europe/Madrid
par_8_11330,11330,MARQUÉS VALDAVIA Nº147,Calle del Marqués de la Valdavia,159,40.5480079650879,-3.66038203239441,B1,http://www.crtm.es,Europe/Madrid
par_8_12728,12728,AV.INDEPENDENCIA-OVIEDO,Avda de la Independencia,31,40.5521469116211,-3.63546657562256,B1,http://www.crtm.es,Europe/Madrid
par_8_07528,07528,MANUEL DE FALLA-PARQUE EXTREMADURA,Calle Manuel de Falla,42,40.5518379211426,-3.64430999755859,B1,http://www.crtm.es,Europe/Madrid
par_8_18077,18077,MARQUÉS VALDAVIA-MÁQUINA DEL TREN,Calle del Marqués de la Valdavia,131,40.5474548339844,-3.65757775306702,B1,http://www.crtm.es,Europe/Madrid
par_8_16932,16932,VEREDA NORTE-PºCONDE LOS GAITANES,Calle de la Vereda Norte,2,40.5160827636719,-3.64211416244507,B1,http://www.crtm.es,Europe/Madrid
par_8_12895,12895,CTRA.M607-UNIV.AUTÓNOMA,Acces M-607,1,40.5404319763184,-3.69692611694336,B1,http://www.crtm.es,Europe/Madrid
par_8_07396,07396,AV.LOGROÑO-PºALAMEDA DE OSUNA,Avda de Logroño,29,40.451114654541,-3.60802698135376,A,http://www.crtm.es,Europe/Madrid
par_8_16182,16182,AV.MATAPIÑONERA-FRESA,Avda Matapiñonera,24,40.5450096130371,-3.61730718612671,B1,http://www.crtm.es,Europe/Madrid
par_8_11982,11982,ISLA GRACIOSA-ISLA DEL HIERRO,Calle de la Isla Graciosa,7,40.5544204711914,-3.61784243583679,B1,http://www.crtm.es,Europe/Madrid
par_8_18823,18823,AV.BARAJAS-HOTEL,Avda de Barajas,4,40.534496307373,-3.62076473236084,B1,http://www.crtm.es,Europe/Madrid
par_8_09090,09090,PºCHOPERA-CENTRO SALUD VALDAVIA,Paseo de la Chopera,89,40.5444526672363,-3.64677810668945,B1,http://www.crtm.es,Europe/Madrid
par_8_06842,06842,CTRA.M603-C.C.RÍO NORTE,Ctra de Fuencarral,3900,40.5301132202148,-3.64933228492737,B1,http://www.crtm.es,Europe/Madrid
par_8_11333,11333,AV.VEGA-AV.BARAJAS,Avda de la Vega,2,40.5367088317871,-3.6248471736908,B1,http://www.crtm.es,Europe/Madrid
par_8_07364,07364,MARQUÉS VALDAVIA-RUPERTO CHAPÍ,Calle del Marqués de la Valdavia,94,40.5461883544922,-3.64602732658386,B1,http://www.crtm.es,Europe/Madrid
par_8_15192,15192,PºEUROPA-CºJUNCAL,Paseo Europa,26,40.541389465332,-3.62699270248413,B1,http://www.crtm.es,Europe/Madrid
par_8_18591,18591,CºHUERTA-ENRIQUE LAFUENTE FERRARI,Cmno de la Huerta,143 C,40.5066719055176,-3.64174127578735,B1,http://www.crtm.es,Europe/Madrid
par_8_18063,18063,SUERTE-IMAGINACIÓN,Calle de la Suerte,4,40.5549240112305,-3.65903258323669,B1,http://www.crtm.es,Europe/Madrid
par_8_15311,15311,DR.ADOLFO ROMERO-AV.PINTOR MURILLO,Calle del Doctor Adolfo Romero,20,40.5422592163086,-3.64615488052368,B1,http://www.crtm.es,Europe/Madrid
par_8_3670,3670,CTRA.COLMENAR-HOSPITAL RAMON Y CAJAL,Ctra M-607 Colmenar Viejo,8400,40.4878807067871,-3.69700765609741,A,http://www.crtm.es,Europe/Madrid
par_8_06797,06797,AV.BAUNATAL-PZA.ANDRÉS CABALLERO,Avda de Baunatal,1 A,40.5526695251465,-3.63071179389954,B1,http://www.crtm.es,Europe/Madrid
par_8_11226,11226,PZA.PARÍS-P.EMPRESARIAL LA MORALEJA,Plaza de París,1,40.520133972168,-3.65866827964783,B1,http://www.crtm.es,Europe/Madrid
par_8_06565,06565,CTRA.M607-RESIDENCIA ANCIANOS,Acces M-607,1,40.524585723877,-3.68812012672424,B1,http://www.crtm.es,Europe/Madrid
par_8_12718,12718,AV.VALDELAPARRA-VALGRANDE,Avda de Valdelaparra,1700,40.539737701416,-3.65416026115417,B1,http://www.crtm.es,Europe/Madrid
par_8_17237,17237,PºEUROPA-LEOPOLDO GIMENO,Avda de Camino de lo Cortao,2,40.5476913452148,-3.62171316146851,B1,http://www.crtm.es,Europe/Madrid
par_8_12218,12218,AV.MATAPIÑONERA-AV.CAMINO DE LO CORTAO,Avda Matapiñonera,6,40.5483512878418,-3.61938095092773,B1,http://www.crtm.es,Europe/Madrid
par_8_06861,06861,CTRA.M603-C.C.RÍO NORTE,Ctra de Fuencarral,4000,40.5303039550781,-3.64798808097839,B1,http://www.crtm.es,Europe/Madrid
par_8_06694,06694,CTRA.ANTIGUA DE BURGOS-LA GRANJILLA,Ctra N-I ( Burgos),20300,40.5691719055176,-3.6023485660553,B2,http://www.crtm.es,Europe/Madrid
par_8_06745,06745,CTRA.M106-POL.IND.EL NOGAL,Ctra de Algete,2.700,40.5939788818359,-3.52148723602295,B3,http://www.crtm.es,Europe/Madrid
par_8_06691,06691,AV.OLÍMPICA-C.C.LA VEGA,Avda Olímpica,9,40.5352478027344,-3.63698363304138,B1,http://www.crtm.es,Europe/Madrid
par_8_11588,11588,AV.VALDELAPARRA-PºCHOPERA,Avda de Valdelaparra,2800,40.5444793701172,-3.66154003143311,B1,http://www.crtm.es,Europe/Madrid
par_8_12927,12927,AV.CAMILO J.CELA-GABRIEL GªMÁRQUEZ,Avda de Camilo José Cela,28,40.5417556762695,-3.6589035987854,B1,http://www.crtm.es,Europe/Madrid
par_8_15310,15310,HUELVA-RAMÓN Y CAJAL,Calle de Huelva,8,40.541259765625,-3.64933347702026,B1,http://www.crtm.es,Europe/Madrid
par_8_1315,1315,AV.LOGROÑO-ARIADNA,Avda de Logroño,96,40.468692779541,-3.58152627944946,A,http://www.crtm.es,Europe/Madrid
par_8_12925,12925,AV.ESPAÑA-CENTRO DE MAYORES,Avda de España,58,40.5434722900391,-3.62831091880798,B1,http://www.crtm.es,Europe/Madrid
par_8_16936,16936,JAZMÍN-KERRIA,Calle Jazmín,95,40.520938873291,-3.64075565338135,B1,http://www.crtm.es,Europe/Madrid
par_8_18283,18283,FRANCISCA DELGADO-AV.VEGA,Calle de Francisca Delgado,7,40.5343170166016,-3.63089394569397,B1,http://www.crtm.es,Europe/Madrid
par_8_16922,16922,CTRA.MEDIODÍA-PUENTE DEL ENCINAR,Ctra del Mediodía,34,40.5110206604004,-3.65183925628662,B1,http://www.crtm.es,Europe/Madrid
par_8_09096,09096,PZA.PUERTA MADRID-RESIDENCIAL AISLADA,Avda del Parque,2,40.5896797180176,-3.70521283149719,B2,http://www.crtm.es,Europe/Madrid
par_8_06831,06831,PºALCOBENDAS-URB.LEVIT PARK,Paseo de Alcobendas,14,40.527271270752,-3.61228013038635,B1,http://www.crtm.es,Europe/Madrid
par_8_955,955,CTRA.COLMENAR-HOSPITAL RAMON Y CAJAL,Ctra M-607 Colmenar Viejo,8300,40.4870910644531,-3.69695210456848,A,http://www.crtm.es,Europe/Madrid
par_8_08695,08695,PºCHOPERA-EDUCACIÓN INFANTIL ESPECIAL,Paseo de la Chopera,107,40.5449371337891,-3.6501247882843,B1,http://www.crtm.es,Europe/Madrid
par_8_09645,09645,AV.ENCUARTES-AV.LABRADORES,Avda de los Encuartes,5,40.5982971191406,-3.71120095252991,B2,http://www.crtm.es,Europe/Madrid
par_8_13074,13074,CALDO-CASA DE LA JUVENTUD,Calle del Caldo,SN,40.5963096618652,-3.50148487091064,B3,http://www.crtm.es,Europe/Madrid
par_8_18060,18060,FELICIDAD-AV.MAGIA,Avda de la Magia,7,40.5504570007324,-3.65751242637634,B1,http://www.crtm.es,Europe/Madrid
par_8_17238,17238,PºEUROPA-LEOPOLDO GIMENO,Paseo Europa,26,40.5477409362793,-3.62202072143555,B1,http://www.crtm.es,Europe/Madrid
par_8_17411,17411,JOSÉ HIERRO-JULIO REY PASTOR,Calle José Hierro,7,40.5661582946777,-3.61127591133118,B1,http://www.crtm.es,Europe/Madrid
par_8_09683,09683,AV.VIÑUELAS-PZA.ENCINA,Avda de Viñuelas,2,40.5952491760254,-3.70745778083801,B2,http://www.crtm.es,Europe/Madrid
par_8_18634,18634,MARIE CURIE-FCO.TOMÁS Y VALIENTE,Calle de Marie Curie,4,40.5459899902344,-3.69224810600281,B1,http://www.crtm.es,Europe/Madrid
par_8_06864,06864,CTRA.A1-EL ENCINAR DE LOS REYES,Ctra de Irún,13.000,40.5145568847656,-3.65547370910645,B1,http://www.crtm.es,Europe/Madrid
par_8_16907,16907,VALGRANDE-REYES CATÓLICOS,Calle de Valgrande,17,40.5372924804688,-3.65103101730347,B1,http://www.crtm.es,Europe/Madrid
par_8_12241,12241,NARDO-CENTRO CÍVICO,Calle del Nardo,44,40.5311317443848,-3.63638973236084,B1,http://www.crtm.es,Europe/Madrid
par_8_17519,17519,PºCONDE LOS GAITANES Nº65,Paseo del Conde de los Gaitanes,74,40.5246810913086,-3.62167763710022,B1,http://www.crtm.es,Europe/Madrid
par_8_06573,06573,CTRA.M607-CEMENTERIO LA PAZ,Ctra M-607 Colmenar Viejo,19400,40.5785865783691,-3.70558094978333,B2,http://www.crtm.es,Europe/Madrid
par_8_06807,06807,POLIDEPORTIVO MUNICIPAL-DEHESA BOYAL,Calle Polideportivo Municipal,3,40.5674896240234,-3.63187885284424,B1,http://www.crtm.es,Europe/Madrid
par_8_15850,15850,AV.TENERIFE-GOMERA,Avda de Tenerife,6,40.5594940185547,-3.62303900718689,B1,http://www.crtm.es,Europe/Madrid
par_8_10548,10548,PºCASTELLANA-HOSPITAL LA PAZ,Paseo de la Castellana,300,40.4800941171655,-3.68572507246812,A,http://www.crtm.es,Europe/Madrid
par_8_16568,16568,ALONSO Z.VICENTE-CLARA CAMPOAMOR,Calle Alonso Zamora Vicente,6,40.5615463256836,-3.61327743530273,B1,http://www.crtm.es,Europe/Madrid
par_8_06658,06658,AV.INDUSTRIA-PZA.ESCUADRA,Avda de la Industria,34,40.6130294799805,-3.69933485984802,B2,http://www.crtm.es,Europe/Madrid
par_8_06773,06773,PºCHOPERA-CENTRO CULTURAL,Paseo de la Chopera,94,40.543342590332,-3.64372062683105,B1,http://www.crtm.es,Europe/Madrid
par_8_18078,18078,MARQUÉS VALDAVIA-HIPERMERCADO,Calle del Marqués de la Valdavia,167,40.5484199523926,-3.66075205802917,B1,http://www.crtm.es,Europe/Madrid
par_8_11277,11277,BEGONIA-AZALEA,Calle de Begonia,279,40.5275573730469,-3.63793802261353,B1,http://www.crtm.es,Europe/Madrid
par_8_12715,12715,AV.VALDELAPARRA-PARQUE ANDALUCÍA,Avda de Valdelaparra,1100,40.539306640625,-3.64740180969238,B1,http://www.crtm.es,Europe/Madrid
par_8_12032,12032,MANUEL DE FALLA-CALDERÓN DE LA BARCA,Calle Manuel de Falla,4,40.5468215942383,-3.65033197402954,B1,http://www.crtm.es,Europe/Madrid
par_8_12730,12730,AV.SIERRA-EST.ALCOBENDAS S.SEB.REYES,Calle Marruecos,6,40.5469818115234,-3.63435506820679,B1,http://www.crtm.es,Europe/Madrid
par_8_06652,06652,MAJADA-AV.INDUSTRIA,Calle de la Majada,4,40.6015815734863,-3.69721817970276,B2,http://www.crtm.es,Europe/Madrid
par_8_06736,06736,CTRA.M100-EL CASETÓN,Ctra M-111 Paracuellos a Fuente El Saz,SN,40.5845527648926,-3.56065630912781,B2,http://www.crtm.es,Europe/Madrid
par_8_19103,19103,CºDEL ENCINAR-PºDEL PARQUE,Paseo de los Parques,4,40.5128974914551,-3.65244770050049,B1,http://www.crtm.es,Europe/Madrid
par_8_10447,10447,AV.ROSA LUXEMBURGO-CALDERÓN DE LA BARCA,Avda de Rosa Luxemburgo,13,40.5575637817383,-3.63634467124939,B1,http://www.crtm.es,Europe/Madrid
par_8_16989,16989,VALGRANDE-AV.VALDELAPARRA,Calle de Valgrande,27 D,40.5392150878906,-3.65386009216309,B1,http://www.crtm.es,Europe/Madrid
par_8_12508,12508,AV.ENCUARTES-AYUNTAMIENTO,Avda de los Encuartes,9,40.5999221801758,-3.71242380142212,B2,http://www.crtm.es,Europe/Madrid
par_8_17025,17025,PºEUROPA-HOSPITAL INFANTA SOFÍA,Paseo Europa,11,40.5602951049805,-3.61124610900879,B1,http://www.crtm.es,Europe/Madrid
par_8_10019,10019,PºEUROPA-GTA.ANTONIO GAUDÍ,Paseo Europa,7,40.5562934875488,-3.61487126350403,B1,http://www.crtm.es,Europe/Madrid
par_8_11626,11626,AV.EUROPA-C.C.MORALEJA GREEN,Avda de Europa,16,40.5174903869629,-3.6559271812439,B1,http://www.crtm.es,Europe/Madrid
par_8_18066,18066,PºFUENTE LUCHA-FANTASÍA,Paseo de Fuente Lucha,7,40.5521697998047,-3.66013956069946,B1,http://www.crtm.es,Europe/Madrid
par_8_09097,09097,AV.PARQUE-PZA.PUERTA MADRID,Avda del Parque,2,40.5899658203125,-3.70505046844482,B2,http://www.crtm.es,Europe/Madrid
par_8_11628,11628,AV.EUROPA-PZA.ROMA,Avda de Europa,20 B,40.5147094726563,-3.65746998786926,B1,http://www.crtm.es,Europe/Madrid
par_8_16942,16942,CAMINO DEL GOLF-PºCONDE LOS GAITANES,Calle del Camino del Golf,42,40.5242919921875,-3.61539340019226,B1,http://www.crtm.es,Europe/Madrid
par_8_11402,11402,PºEUROPA-GTA.ANTONIO GAUDÍ,Paseo Europa,7,40.5563850402832,-3.61443519592285,B1,http://www.crtm.es,Europe/Madrid
par_8_18175,18175,FELICIDAD-COLEGIO,Calle de la Felicidad,SN,40.5503959655762,-3.66175174713135,B1,http://www.crtm.es,Europe/Madrid
par_8_10606,10606,AV.ESPAÑA-COMISARÍA POLICÍA,Avda de España,68,40.5475692749023,-3.63557696342468,B1,http://www.crtm.es,Europe/Madrid
par_8_11981,11981,ISLA GRACIOSA-ANTENA 3,Calle de la Isla Graciosa,10,40.5566596984863,-3.61580777168274,B1,http://www.crtm.es,Europe/Madrid
par_8_16926,16926,PºPARQUES-ENCINAR DE LOS REYES,Paseo de los Parques,36,40.5093116760254,-3.63810729980469,B1,http://www.crtm.es,Europe/Madrid
par_8_17513,17513,AV.ERMITA-EST.LA MORALEJA,Avda de la Ermita,2,40.5319557189941,-3.63606691360474,B1,http://www.crtm.es,Europe/Madrid
par_8_06656,06656,AV.INDUSTRIA-BATANES,Avda de la Industria,26,40.6114311218262,-3.69696593284607,B2,http://www.crtm.es,Europe/Madrid
par_8_15677,15677,AV.PABLO IGLESIAS-CARLOS MUÑOZ RUIZ,Avda Pablo Iglesias,16,40.5531120300293,-3.65646362304688,B1,http://www.crtm.es,Europe/Madrid
par_8_13032,13032,SANTA TERESA DE JESÚS-J.RAMÓN JIMENEZ,Calle de Santa Teresa de Jesús,SN,40.5971641540527,-3.50625419616699,B3,http://www.crtm.es,Europe/Madrid
par_8_50021,50021,CTRA.M616-UNIV.AUTÓNOMA DE MADRID,Ctra M-616 (Alcobendas),6700,40.549243927002,-3.69824576377869,B1,http://www.crtm.es,Europe/Madrid
par_8_17410,17410,JOSÉ HIERRO-MERCÉ RODODERA,Calle José Hierro,7,40.5643844604492,-3.61307883262634,B1,http://www.crtm.es,Europe/Madrid
par_8_16572,16572,JOSÉ HIERRO-MARÍA MOLINER,Calle José Hierro,11,40.5625801086426,-3.61541318893433,B1,http://www.crtm.es,Europe/Madrid
par_8_06690,06690,CTRA.IRÚN-CONCESIONARIO,Ctra de Irún,14700,40.5337944030762,-3.64185833930969,B1,http://www.crtm.es,Europe/Madrid
par_8_13189,13189,AV.PARQUE-OLMO,Avda del Parque,SN,40.5948829650879,-3.70682764053345,B2,http://www.crtm.es,Europe/Madrid
par_8_06808,06808,AZALEA Nº65,Calle de la Azalea,203,40.5208168029785,-3.64945507049561,B1,http://www.crtm.es,Europe/Madrid
par_8_18638,18638,NEWTON-NICOLÁS CABRERA,Calle de Newton,13,40.5494270324707,-3.69152760505676,B1,http://www.crtm.es,Europe/Madrid
par_8_15849,15849,AV.MADRID-MANUEL DE FALLA,Avda de Madrid,71,40.5532112121582,-3.64023661613464,B1,http://www.crtm.es,Europe/Madrid
par_8_06762,06762,AV.ESPAÑA-AYUNTAMIENTO,Avda de España,SN,40.5472755432129,-3.6412193775177,B1,http://www.crtm.es,Europe/Madrid
par_8_11593,11593,AV.CAMINO DE LO CORTAO-AV.MONCAYO,Avda de Camino de lo Cortao,31,40.5542297363281,-3.6114981174469,B1,http://www.crtm.es,Europe/Madrid
par_8_06763,06763,AV.ESPAÑA-AYUNTAMIENTO,Avda de España,34,40.5471420288086,-3.64091086387634,B1,http://www.crtm.es,Europe/Madrid
par_8_15680,15680,FCO.LARGO CABALLERO-AV.MIGUEL CERVANTES,Calle Francisco Largo Caballero,30,40.5536651611328,-3.65081167221069,B1,http://www.crtm.es,Europe/Madrid
par_8_06756,06756,MARQUÉS VALDAVIA-RAMÓN FDEZ.GUISASOLA,Calle del Marqués de la Valdavia,20,40.5408248901367,-3.6367175579071,B1,http://www.crtm.es,Europe/Madrid
par_8_06885,06885,PºCHOPERA-CENTRO SALUD VALDAVIA,Paseo de la Chopera,108,40.5446510314941,-3.64672112464905,B1,http://www.crtm.es,Europe/Madrid
par_8_06780,06780,MARQUESA VIUDA DE ALDAMA-TRVA.DEL CAÑÓN,Calle de la Marquesa Viuda de Aldama,SN,40.5422172546387,-3.63090896606445,B1,http://www.crtm.es,Europe/Madrid
par_8_15679,15679,AV.MIGUEL CERVANTES-FCO.LARGO CABALLERO,Avda Miguel de Cervantes,17,40.5530738830566,-3.65025091171265,B1,http://www.crtm.es,Europe/Madrid
par_8_12422,12422,PºEUROPA-AV.MONTES DE OCA,Paseo Europa,1,40.553352355957,-3.61756086349487,B1,http://www.crtm.es,Europe/Madrid
par_8_11798,11798,AV.BRUSELAS-EST.LA MORALEJA,Avda de Bruselas,14,40.531681060791,-3.63513159751892,B1,http://www.crtm.es,Europe/Madrid
par_8_06673,06673,CTRA.COLMENAR VIEJO-SANTA ANA,Ctra M-607 Colmenar Viejo,9700,40.499137878418,-3.69927191734314,A,http://www.crtm.es,Europe/Madrid
par_8_06767,06767,MARQUÉS VALDAVIA-ISLAS BIKINI,Calle del Marqués de la Valdavia,37,40.5427932739258,-3.63915705680847,B1,http://www.crtm.es,Europe/Madrid
par_8_08399,08399,AV.ENCUARTES-PANADEROS,Avda de los Encuartes,21,40.604190826416,-3.7154712677002,B2,http://www.crtm.es,Europe/Madrid
par_8_06772,06772,MARQUÉS VALDAVIA-AV.DOCTOR SEVERO OCHOA,Calle del Marqués de la Valdavia,91,40.5461845397949,-3.64981818199158,B1,http://www.crtm.es,Europe/Madrid
par_8_08694,08694,PºCHOPERA-EDUCACIÓN INFANTIL ESPECIAL,Paseo de la Chopera,107,40.5447425842285,-3.65008759498596,B1,http://www.crtm.es,Europe/Madrid
par_8_11629,11629,AV.EUROPA-PZA.ROMA,Avda de Europa,19 Z,40.5146102905273,-3.65729212760925,B1,http://www.crtm.es,Europe/Madrid
par_8_06803,06803,CTRA.M603-C.C.PLANET ALCOBENDAS,Calle de Francisco Chico Mendes,2,40.5263786315918,-3.65379428863525,B1,http://www.crtm.es,Europe/Madrid
par_8_07327,07327,AV.LOGROÑO-ALAMEDA DE OSUNA,Avda de Logroño,189,40.4609107971191,-3.59207439422607,A,http://www.crtm.es,Europe/Madrid
par_8_06572,06572,CTRA.M607-LAS JARILLAS,Ctra M-607 Colmenar Viejo,18700,40.5721817016602,-3.70951867103577,B2,http://www.crtm.es,Europe/Madrid
par_8_11799,11799,AV.BRUSELAS-EST.LA MORALEJA,Avda de Bruselas,15,40.5314636230469,-3.63515329360962,B1,http://www.crtm.es,Europe/Madrid
par_8_11696,11696,VALDEAMOR-PZA.POETAS,Calle de Valdeamor,117,40.6020545959473,-3.49975490570068,B3,http://www.crtm.es,Europe/Madrid
par_8_3602,3602,AV.BURGOS Nº 93,Avda de Burgos,10100,40.4933738708496,-3.67044281959534,A,http://www.crtm.es,Europe/Madrid
par_8_06638,06638,AV.INDUSTRIA-PICO DE SAN PEDRO,Avda de la Industria,76,40.6176109313965,-3.70892310142517,B2,http://www.crtm.es,Europe/Madrid
par_8_16646,16646,AV.HISPANIDAD-AEROPUERTO T4,Avda Hispanidad,1,40.4914779663086,-3.59348750114441,A,http://www.crtm.es,
par_8_16645,16645,CTRA.M110-APARCAMIENTO T4,Ctra de Alcobendas a Barajas,1000,40.4829025268555,-3.58980178833008,A,http://www.crtm.es,Europe/Madrid
par_8_12929,12929,AV.BRUSELAS-CENTRO COMERCIAL,Avda de Bruselas,26,40.5307693481445,-3.64027094841003,B1,http://www.crtm.es,Europe/Madrid
par_8_11598,11598,AV.ROSA LUXEMBURGO-EST.BAUNATAL,Avda de Rosa Luxemburgo,1,40.555004119873,-3.63524556159973,B1,http://www.crtm.es,Europe/Madrid
par_8_16946,16946,PºALCOBENDAS-VEREDILLA,Paseo de Alcobendas,3,40.5249519348145,-3.63162064552307,B1,http://www.crtm.es,Europe/Madrid
par_8_18074,18074,INTERCAMBIADOR DE PLAZA CASTILLA,Paseo de la Castellana,195 A,40.4675521850586,-3.68892955780029,A,http://www.crtm.es,
par_8_16437,16437,CTRA.ANTIGUA DE BURGOS-C.C.ALEGRA,Ctra N-I ( Burgos),19900,40.5660285949707,-3.60559248924255,B1,http://www.crtm.es,Europe/Madrid
par_8_17026,17026,AV.DR.SEVERO OCHOA-PARQUE DE GALICIA,Avda del Doctor Severo Ochoa,49,40.541130065918,-3.65479969978333,B1,http://www.crtm.es,Europe/Madrid
par_8_15309,15309,PºCHOPERA-AV.DR.SEVERO OCHOA,Paseo de la Chopera,122,40.5449867248535,-3.651282787323,B1,http://www.crtm.es,Europe/Madrid
par_8_12344,12344,PºPARQUES-CºEL ENCINAR,Paseo de los Parques,7,40.512767791748,-3.6501681804657,B1,http://www.crtm.es,Europe/Madrid
par_8_1313,1313,AV.LOGROÑO-MARQUES DE BERNA,Avda de Logroño,243,40.4645080566406,-3.58558320999146,A,http://www.crtm.es,Europe/Madrid
par_8_15312,15312,MANUEL DE FALLA-EST.MANUEL DE FALLA,Calle Manuel de Falla,32,40.5502891540527,-3.64723587036133,B1,http://www.crtm.es,Europe/Madrid
par_8_17518,17518,CAMINO ANCHO-PºMARQUESA VIUDA ALDAMA,Calle del Camino Ancho,63,40.5177192687988,-3.61942958831787,B1,http://www.crtm.es,Europe/Madrid
par_8_06792,06792,AV.COLMENAR VIEJO-NTRA.SRA.CARMEN,Avda de Colmenar Viejo,27,40.5472412109375,-3.63149952888489,B1,http://www.crtm.es,Europe/Madrid
par_8_12093,12093,AV.BRUSELAS-CENTRO EMPRESARIAL,Avda de Bruselas,34,40.5296058654785,-3.64231419563293,B1,http://www.crtm.es,Europe/Madrid
par_8_12347,12347,PºLOS PARQUES-VEREDA DE PALACIO,Paseo de los Parques,25,40.5095443725586,-3.64345645904541,B1,http://www.crtm.es,Europe/Madrid
par_8_09422,09422,AZALEA-PºDE ALCOBENDAS,Calle de la Azalea,755,40.5251884460449,-3.63444471359253,B1,http://www.crtm.es,Europe/Madrid
par_8_06752,06752,BULV.SALVADOR ALLENDE-SORIA,Bulv de Salvador Allende,19,40.5379219055176,-3.63352560997009,B1,http://www.crtm.es,Europe/Madrid
par_8_06796,06796,AV.BAUNATAL-PZA.ANDRÉS CABALLERO,Avda de Baunatal,2,40.5527076721191,-3.6302752494812,B1,http://www.crtm.es,Europe/Madrid
par_8_06636,06636,AV.INDUSTRIA-YUNQUE,Avda de la Industria,52,40.6144943237305,-3.70241189002991,B2,http://www.crtm.es,Europe/Madrid
par_8_18177,18177,FANTASÍA-AV.MAGIA,Calle de la Fantasía,3,40.5527610778809,-3.65783023834229,B1,http://www.crtm.es,Europe/Madrid
par_8_12351,12351,CºHUERTA-DÁMASO ALONSO,Cmno de la Huerta,223,40.5072593688965,-3.63791084289551,B1,http://www.crtm.es,Europe/Madrid
par_8_16938,16938,CAMINO NUEVO-GTA.LA PALMERA,Calle Camino Nuevo,229,40.5245475769043,-3.6344621181488,B1,http://www.crtm.es,Europe/Madrid
par_8_15191,15191,PºEUROPA-AV.ESPAÑA,Paseo Europa,26,40.5417900085449,-3.62687826156616,B1,http://www.crtm.es,Europe/Madrid
par_8_06741,06741,RONDA DE LA CONSTITUCIÓN-ALCALÁ,Calle Ronda de la Constitución,137,40.5954666137695,-3.49679851531982,B3,http://www.crtm.es,Europe/Madrid
par_8_11693,11693,OLIVOS-MARÍA AMOR,Calle de los Olivos,19,40.5992012023926,-3.50136470794678,B3,http://www.crtm.es,Europe/Madrid
par_8_06664,06664,CTRA.M607-EL GOLOSO,Ctra M-607 Colmenar Viejo,16900,40.5554046630859,-3.71023917198181,B1,http://www.crtm.es,Europe/Madrid
par_8_06795,06795,AV.SIERRA-CERVANTES,Avda de la Sierra,10,40.5504302978516,-3.63275766372681,B1,http://www.crtm.es,Europe/Madrid
par_8_07386,07386,AV.LOGROÑO-JARDINES DE ARANJUEZ,Avda de Logroño,34,40.4537811279297,-3.60440683364868,A,http://www.crtm.es,Europe/Madrid
par_8_18064,18064,SUERTE-MAGIA,Avda de la Magia,17,40.5551223754883,-3.6573338508606,B1,http://www.crtm.es,Europe/Madrid
par_8_1316,1316,AV.LOGROÑO-ARIADNA,Avda de Logroño,303,40.4689979553223,-3.58163499832153,A,http://www.crtm.es,Europe/Madrid
par_8_10450,10450,AV.NAVARRONDÁN -PºSEGOVIA,Avda de Navarrondán,43,40.5609321594238,-3.62885212898254,B1,http://www.crtm.es,Europe/Madrid
par_8_06813,06813,DALIA-AZALEA,Calle Dalia,385,40.5247993469238,-3.63492488861084,B1,http://www.crtm.es,Europe/Madrid
par_8_06832,06832,CAMINO VIEJO-PºCONDE DE LOS GAITANES,Calle del Camino Viejo,88,40.5248489379883,-3.60856294631958,B1,http://www.crtm.es,Europe/Madrid
par_8_12926,12926,AV.BRUSELAS-ÁREA SANITARIA 5,Avda de Bruselas,37,40.5281944274902,-3.64324522018433,B1,http://www.crtm.es,Europe/Madrid
par_8_15319,15319,AV.ERMITA-C.C.LA VEGA,Avda de la Ermita,5,40.5352897644043,-3.63589787483215,B1,http://www.crtm.es,Europe/Madrid
par_8_06863,06863,CTRA.A1-CUESTA BLANCA,Ctra A-1 (VÍA DE SERVICIO),14.200,40.5223350524902,-3.65168905258179,B1,http://www.crtm.es,Europe/Madrid
par_8_07527,07527,MANUEL DE FALLA-PARQUE EXTREMADURA,Calle Manuel de Falla,SN,40.552059173584,-3.64443016052246,B1,http://www.crtm.es,Europe/Madrid
par_8_11534,11534,AV.PARQUE-EINSTEIN,Avda del Parque,30,40.5930938720703,-3.70620608329773,B2,http://www.crtm.es,Europe/Madrid
par_8_07373,07373,MARQUÉS VALDAVIA-CAMILO JOSÉ CELA,Calle del Marqués de la Valdavia,123,40.5471267700195,-3.65675950050354,B1,http://www.crtm.es,Europe/Madrid
par_8_12928,12928,AV.ERMITA-C.C.LA VEGA,Avda de la Ermita,5,40.535026550293,-3.63602519035339,B1,http://www.crtm.es,Europe/Madrid
par_8_06650,06650,VADO-COLEGIO,Calle del Vado,66,40.6004905700684,-3.70191073417664,B2,http://www.crtm.es,Europe/Madrid
par_8_07236,07236,AV.ESPAÑA-M.SEBASTIÁN IZUEL,Avda de España,72,40.5409965515137,-3.62847685813904,B1,http://www.crtm.es,Europe/Madrid
par_8_12343,12343,PºLOS PARQUES-ESTAFETA,Paseo de los Parques,6,40.5129585266113,-3.6516809463501,B1,http://www.crtm.es,Europe/Madrid
par_8_07374,07374,CTRA.M616-COLEGIO,Ctra del Goloso,4600,40.5531806945801,-3.67543268203735,B1,http://www.crtm.es,Europe/Madrid
par_8_16923,16923,CTRA.MEDIODÍA-URB.PUERTA ENCINAR II,Ctra del Mediodía,50,40.5105857849121,-3.64878964424133,B1,http://www.crtm.es,Europe/Madrid
par_8_09435,09435,CAMINO HUERTA-VEREDA LOS ÁLAMOS,Calle Camino de la Huerta,61,40.512767791748,-3.6224057674408,B1,http://www.crtm.es,Europe/Madrid
par_8_10227,10227,CTRA.M100-CºVIEJO DE BARAJAS,Ctra Algete,22200,40.5834121704102,-3.57415270805359,B2,http://www.crtm.es,Europe/Madrid
par_8_18636,18636,NEWTON-FCO.TOMÁS Y VALIENTE,Calle de Newton,13,40.5473022460938,-3.69028925895691,B1,http://www.crtm.es,Europe/Madrid
par_8_11335,11335,NARDO-COMPLEJO DEPORTIVO,Calle del Nardo,SN,40.5294075012207,-3.63709378242493,B1,http://www.crtm.es,Europe/Madrid
par_8_11796,11796,AV.BRUSELAS-FRANCISCA DELGADO,Avda de Bruselas,6,40.5311813354492,-3.6324348449707,B1,http://www.crtm.es,Europe/Madrid
par_8_15852,15852,MAYOR-PARQUE LOS OLIVOS,Calle de los Palomares,21,40.5967178344727,-3.50285887718201,B3,http://www.crtm.es,Europe/Madrid
par_8_16911,16911,CALABOZOS-FRANCISCO GERVÁS,Calle de los Calabozos,2,40.5308952331543,-3.65161848068237,B1,http://www.crtm.es,Europe/Madrid
par_8_11229,11229,PºCHOPERA-PINTOR SOROLLA,Paseo de la Chopera,29,40.5412139892578,-3.64138579368591,B1,http://www.crtm.es,Europe/Madrid
par_8_19286,19286,SALVADOR MADARIAGA-C.C.ALEGRA,Calle Salvador de Madariaga,1,40.5669898986816,-3.60923981666565,B1,http://www.crtm.es,Europe/Madrid
par_8_06805,06805,AV.ARAGÓN-INSTITUTO,Avda de Aragón,3 B,40.558464050293,-3.63004565238953,B1,http://www.crtm.es,Europe/Madrid
par_8_06660,06660,AV.COLMENAR VIEJO-DESCUBRIDORES,Avda de Colmenar Viejo,46,40.6089897155762,-3.71448230743408,B2,http://www.crtm.es,Europe/Madrid
par_8_1321,1321,AV.LOGROÑO-ALGEMESI,Avda de Logroño,130,40.4722862243652,-3.58168697357178,A,http://www.crtm.es,Europe/Madrid
par_8_16924,16924,CTRA.MEDIODÍA-VEREDA DEL PALACIO,Ctra del Mediodía,50,40.5081787109375,-3.64573311805725,B1,http://www.crtm.es,Europe/Madrid
par_8_3265,3265,AV.BURGOS Nº 87-PASO ELEVADO,Avda de Burgos,87,40.4900245666504,-3.67299365997314,A,http://www.crtm.es,Europe/Madrid
par_8_07369,07369,CTRA-M12-LA MORALEJA,Ctra de Barajas,4,40.5252838134766,-3.59975957870483,B1,http://www.crtm.es,Europe/Madrid
par_8_12724,12724,MARQUÉS VALDAVIA-EST.VALDELASFUENTES,Calle del Marqués de la Valdavia,105,40.5466423034668,-3.65350723266602,B1,http://www.crtm.es,Europe/Madrid
par_8_13132,13132,PºPARQUES-CTRA.A1,Paseo de los Parques,SN,40.5134811401367,-3.65497922897339,B1,http://www.crtm.es,Europe/Madrid
par_8_09681,09681,AV.ENCUARTES-LUNA,Avda de los Encuartes,17,40.6017684936523,-3.71390891075134,B2,http://www.crtm.es,Europe/Madrid
par_8_06827,06827,PºALCOBENDAS-C.C.BULEVAR,Paseo de Alcobendas,10,40.5280609130859,-3.62173247337341,B1,http://www.crtm.es,Europe/Madrid
par_8_07376,07376,CTRA.M616-UNIVERSIDAD COMILLAS,Ctra M-616 (Alcobendas),5300,40.5531044006348,-3.68221139907837,B1,http://www.crtm.es,Europe/Madrid
par_8_15848,15848,AV.MADRID-VALENCIA,Avda de Madrid,21,40.5498466491699,-3.63788962364197,B1,http://www.crtm.es,Europe/Madrid
par_8_11793,11793,AV.VEGA-ANABEL SEGURA,Avda de la Vega,7,40.5355758666992,-3.6278121471405,B1,http://www.crtm.es,Europe/Madrid
par_8_16438,16438,CTRA.ANTIGUA DE BURGOS-C.C.ALEGRA,Ctra N-I ( Burgos),19900,40.566089630127,-3.6059238910675,B1,http://www.crtm.es,Europe/Madrid
par_8_06757,06757,GRANJA-AV.INDUSTRIA,Calle de la Granja,78,40.5339736938477,-3.65680813789368,B1,http://www.crtm.es,Europe/Madrid
par_8_06648,06648,VADO-MARTE,Calle del Vado,44,40.598503112793,-3.70161819458008,B2,http://www.crtm.es,Europe/Madrid
par_8_16944,16944,CAMINO ANCHO-HALCÓN,Calle del Camino Ancho,84,40.5258369445801,-3.62628102302551,B1,http://www.crtm.es,Europe/Madrid
par_8_15317,15317,RUPERTO CHAPÍ-TEATRO AUDITORIO,Calle de Ruberto Chapi,19,40.5485649108887,-3.64308571815491,B1,http://www.crtm.es,Europe/Madrid
par_8_06839,06839,CAMINO NUEVO-PZA.SOTO,Calle Camino Nuevo,4,40.5179023742676,-3.64868330955505,B1,http://www.crtm.es,Europe/Madrid
par_8_06643,06643,AV.COLMENAR VIEJO-GUARDIA CIVIL,Avda de Colmenar Viejo,SN,40.6133079528809,-3.71105289459229,B2,http://www.crtm.es,Europe/Madrid
par_8_06843,06843,CTRA.M603-POL.IND.CALABOZOS,Ctra de Fuencarral,78,40.5261192321777,-3.65500783920288,B1,http://www.crtm.es,Europe/Madrid
par_8_07324,07324,AV.LOGROÑO-PºALAMEDA DE OSUNA,Avda de Logroño,6 A,40.4509735107422,-3.60770726203918,A,http://www.crtm.es,Europe/Madrid
par_8_08419,08419,CTRA.M616-UNIVERSIDAD COMILLAS,Ctra M-616 (Alcobendas),5300,40.5522384643555,-3.68385601043701,B1,http://www.crtm.es,Europe/Madrid
par_8_06836,06836,AV.INDUSTRIA-VALGRANDE,Avda de la Industria,30,40.5350074768066,-3.64890718460083,B1,http://www.crtm.es,Europe/Madrid
par_8_15315,15315,ISAAC ALBÉNIZ-ALMERÍA,Calle de Isaac Albéniz,46,40.5509796142578,-3.64475059509277,B1,http://www.crtm.es,Europe/Madrid
par_8_09421,09421,CAMINO NUEVO-CUESTA DEL CERRO,Calle Camino Nuevo,49,40.5214080810547,-3.63880062103271,B1,http://www.crtm.es,Europe/Madrid
par_8_12722,12722,AV.DR.SEVERO OCHOA-PºCHOPERA,Avda del Doctor Severo Ochoa,5,40.544376373291,-3.65094614028931,B1,http://www.crtm.es,Europe/Madrid
par_8_11233,11233,PºCHOPERA-CENTRO CULTURAL,Paseo de la Chopera,63,40.5431365966797,-3.64391946792603,B1,http://www.crtm.es,Europe/Madrid
par_8_07385,07385,AV.LOGROÑO-PARQUE EL CAPRICHO,Avda de Logroño,40 A,40.4587173461914,-3.59791684150696,A,http://www.crtm.es,Europe/Madrid
par_8_10228,10228,CTRA.M100-CºVIEJO DE BARAJAS,Ctra Algete,22.400,40.5837631225586,-3.57461667060852,B2,http://www.crtm.es,Europe/Madrid
par_8_06751,06751,PºEUROPA-PARQUE PICOS DE OLITE,Paseo Europa,26,40.5448379516602,-3.62434387207031,B1,http://www.crtm.es,Europe/Madrid
par_8_20899,20899,REAL-CEMENTERIO,Calle del Real,118,40.5520668029785,-3.62002944946289,B1,http://www.crtm.es,Europe/Madrid
par_8_15314,15314,ISAAC ALBÉNIZ-MANUEL DE FALLA,Calle de Isaac Albéniz,46,40.5509757995605,-3.64503383636475,B1,http://www.crtm.es,Europe/Madrid
par_8_16990,16990,GRANJA-EST.LA GRANJA,Calle de la Granja,14,40.5278205871582,-3.65836572647095,B1,http://www.crtm.es,Europe/Madrid
par_8_06635,06635,CTRA.FUENCARRAL-SAN RAFAEL,Ctra de Fuencarral,2800,40.5230979919434,-3.65894508361816,B1,http://www.crtm.es,Europe/Madrid
par_8_06838,06838,AV.BARAJAS-PARQUE BOMBEROS,Ctra de Barajas,4,40.5351638793945,-3.6209716796875,B1,http://www.crtm.es,Europe/Madrid
par_8_12729,12729,AV.GUADARRAMA-CENTRO DE DÍA,Avda de Guadarrama,17,40.5493850708008,-3.63494443893433,B1,http://www.crtm.es,Europe/Madrid
par_8_11230,11230,PºCHOPERA-CÁDIZ,Paseo de la Chopera,64,40.5414390563965,-3.64132881164551,B1,http://www.crtm.es,Europe/Madrid
par_8_15392,15392,AV.MATAPIÑONERA-CºJUNCAL,Avda Matapiñonera,24,40.540699005127,-3.61807060241699,B1,http://www.crtm.es,Europe/Madrid
par_8_4922,4922,AV.LOGROÑO-TINTIN Y MILU,Avda de Logroño,227 C,40.4629592895508,-3.58788156509399,A,http://www.crtm.es,Europe/Madrid
par_8_17521,17521,CAMINO DEL GOLF-CAMINO DE MESONCILLOS,Calle del Camino del Golf,32,40.5221366882324,-3.61437010765076,B1,http://www.crtm.es,Europe/Madrid
par_8_19289,19289,ROSA CHACEL-FRANCISCO AYALA,Calle Rosa Chacel,5,40.563648223877,-3.61252880096436,B1,http://www.crtm.es,Europe/Madrid
par_8_16921,16921,ESTAFETA-PºLOS PARQUES,Paseo de los Parques,5,40.5134773254395,-3.65220522880554,B1,http://www.crtm.es,Europe/Madrid
par_8_06840,06840,AV.BARAJAS-ARROYO DE LA VEGA,Avda de Barajas,4,40.5374717712402,-3.62374424934387,B1,http://www.crtm.es,Europe/Madrid
par_8_11334,11334,AV.VEGA-AV.BARAJAS,Avda de la Vega,1,40.5363273620605,-3.62517428398132,B1,http://www.crtm.es,Europe/Madrid
par_8_06759,06759,MARQUÉS VALDAVIA-AV.ESPAÑA,Calle del Marqués de la Valdavia,88,40.5447883605957,-3.64296698570251,B1,http://www.crtm.es,Europe/Madrid
par_8_11632,11632,AV.PARQUE-PZA.SOLIDARIDAD,Avda del Parque,74,40.5951118469238,-3.70653462409973,B2,http://www.crtm.es,Europe/Madrid
par_8_18061,18061,PºFUENTE LUCHA-SUEÑOS,Paseo de Fuente Lucha,7,40.5510101318359,-3.65962028503418,B1,http://www.crtm.es,Europe/Madrid
par_8_17027,17027,AV.VALDELAPARRA-INSTITUTO,Avda de Valdelaparra,2500,40.542163848877,-3.66097402572632,B1,http://www.crtm.es,Europe/Madrid
par_8_16947,16947,SAN JOSÉ ARTESANO-VALPORTILLO I,Calle de San José Artesano,14,40.5295448303223,-3.65463972091675,B1,http://www.crtm.es,Europe/Madrid
par_8_06755,06755,MARQUESA VIUDA DE ALDAMA-NªSRA.DEL PILAR,Calle de la Marquesa Viuda de Aldama,14,40.5413055419922,-3.63294339179993,B1,http://www.crtm.es,Europe/Madrid
par_8_09425,09425,PºMARQUESA VIUDA ALDAMA-VEREDILLA,Paseo de la Marquesa Viuda de Aldama,15,40.5173645019531,-3.63054609298706,B1,http://www.crtm.es,Europe/Madrid
par_8_17516,17516,CAMINO DEL SOTO-PZA.LA MORALEJA,Plaza de la Moraleja,1,40.5154647827148,-3.65090250968933,B1,http://www.crtm.es,Europe/Madrid
par_8_09430,09430,CAMINO SUR-CºDE LA FUENTE,Calle del Camino Sur,28,40.5128211975098,-3.6327817440033,B1,http://www.crtm.es,Europe/Madrid
par_8_06693,06693,PºEUROPA-MARÍA SANTOS COLMENAR,Paseo Europa,26,40.544750213623,-3.62408328056335,B1,http://www.crtm.es,Europe/Madrid
par_8_50020,50020,CTRA.M616-UNIV.AUTÓNOMA DE MADRID,Ctra M-616 (Alcobendas),6800,40.5491714477539,-3.69961500167847,B1,http://www.crtm.es,Europe/Madrid
par_8_11331,11331,AV.VEGA-C.C.LA VEGA,Avda de la Ermita,5,40.5335960388184,-3.63564562797546,B1,http://www.crtm.es,Europe/Madrid
par_8_09423,09423,PºCONDE DE LOS GAITANES-IGLESIA,Paseo del Conde de los Gaitanes,21,40.5168609619141,-3.63992595672607,B1,http://www.crtm.es,Europe/Madrid
par_8_16940,16940,CAMINO DEL GOLF-CAMINO MESONCILLOS,Calle del Camino del Golf,22,40.5202789306641,-3.61626577377319,B1,http://www.crtm.es,Europe/Madrid
par_8_09443,09443,CAMINO VIEJO-CºLIEBRES,Calle del Camino Viejo,76,40.5152359008789,-3.61226511001587,B1,http://www.crtm.es,Europe/Madrid
par_8_06865,06865,AV.BURGOS-DOMINICOS,Avda de Santo Domingo de la Calzada,1,40.5019798278809,-3.66061496734619,A,http://www.crtm.es,Europe/Madrid
par_8_06810,06810,JAZMÍN-BEGONIA,Calle de Begonia,258,40.5229377746582,-3.64226222038269,B1,http://www.crtm.es,Europe/Madrid
par_8_18068,18068,AV.PABLO IGLESIAS-DR.ÁNGEL OLIVARES,Avda Pablo Iglesias,6,40.5494842529297,-3.65698337554932,B1,http://www.crtm.es,Europe/Madrid
par_8_18991,18991,PºCHOPERA-AV.VALDELAPARRA,Paseo de la Chopera,341,40.5451469421387,-3.66093254089355,B1,http://www.crtm.es,Europe/Madrid
par_8_15678,15678,FCO.LARGO CABALLERO-PºOCHO DE MARZO,Calle Francisco Largo Caballero,42,40.5536499023438,-3.65323281288147,B1,http://www.crtm.es,Europe/Madrid
par_8_06806,06806,AV.ARAGÓN-PARQUE VELÓDROMO,Avda de Aragón,2,40.5583724975586,-3.62892270088196,B1,http://www.crtm.es,Europe/Madrid
par_8_12237,12237,CALÉNDULA-RESIDENCIAL MINIPARK,Calle de Caléndula,180,40.5277938842773,-3.64406776428223,B1,http://www.crtm.es,Europe/Madrid
par_8_06746,06746,CTRA.M106-POL.IND.RÍO DE JANEIRO,Ctra de Algete,3.500,40.5886192321777,-3.54262185096741,B3,http://www.crtm.es,Europe/Madrid
par_8_11232,11232,PºCHOPERA-AV.CAMILO JOSÉ CELA,Paseo de la Chopera,178,40.5451965332031,-3.6568706035614,B1,http://www.crtm.es,Europe/Madrid
par_8_12345,12345,PºPARQUES Nº17,Paseo de los Parques,19,40.5113067626953,-3.64736843109131,B1,http://www.crtm.es,Europe/Madrid
par_8_11228,11228,PºCHOPERA-CENTRO DE SALUD,Paseo de la Chopera,46,40.540340423584,-3.63958263397217,B1,http://www.crtm.es,Europe/Madrid
par_8_06761,06761,AV.INDUSTRIA-EINSTEIN,Avda de la Industria,38,40.5339469909668,-3.65369081497192,B1,http://www.crtm.es,Europe/Madrid
par_8_06794,06794,AV.SIERRA-NAVAS DE TOLOSA,Avda de la Sierra,23,40.5503768920898,-3.63261556625366,B1,http://www.crtm.es,Europe/Madrid
par_8_12820,12820,AV.MATAPIÑONERA-PLAZA NORTE,Avda Matapiñonera,24,40.5431594848633,-3.61633372306824,B1,http://www.crtm.es,Europe/Madrid
par_8_19287,19287,ALONSO ZAMORA VICENTE-PºGREGORIO MARAÑÓN,Calle Alonso Zamora Vicente,17,40.5651016235352,-3.61008501052856,B1,http://www.crtm.es,Europe/Madrid
par_8_18176,18176,FANTASÍA-AV.MAGIA,Avda de la Magia,17,40.5523452758789,-3.65782618522644,B1,http://www.crtm.es,Europe/Madrid
par_8_11227,11227,PºCHOPERA-CENTRO SALUD LA CHOPERA,Paseo de la Chopera,13,40.5398368835449,-3.63938879966736,B1,http://www.crtm.es,Europe/Madrid
par_8_09445,09445,AZALEA-BEGONIA,Calle de la Azalea,532,40.5276412963867,-3.63754916191101,B1,http://www.crtm.es,Europe/Madrid
par_8_06791,06791,AV.COLMENAR VIEJO-RÍO DUERO,Avda de Colmenar Viejo,28,40.5469551086426,-3.63103628158569,B1,http://www.crtm.es,Europe/Madrid
